{
  "LastUpdateDate": {
    "year": 2020,
    "month": 5,
    "day": 17
  },
  "characteristics_by_county": {
    "values": [
      {
        "County": "Illinois",
        "confirmed_cases": 94191,
        "total_tested": 581944,
        "deaths": 4177,
        "lat": 39.839888,
        "lon": -89.510168
      },
      {
        "County": "Adams",
        "confirmed_cases": 42,
        "deaths": 1,
        "total_tested": 3373,
        "lat": 40.057800,
        "lon": -91.135300
      },
      {
        "County": "Alexander",
        "confirmed_cases": 8,
        "deaths": 0,
        "total_tested": 105,
        "lat": 37.167000,
        "lon": -89.360600
      },
      {
        "County": "Bond",
        "confirmed_cases": 11,
        "deaths": 1,
        "total_tested": 227,
        "lat": 38.903000,
        "lon": -89.474200
      },
      {
        "County": "Boone",
        "confirmed_cases": 290,
        "deaths": 14,
        "total_tested": 1602,
        "lat": 42.348500,
        "lon": -88.826300
      },
      {
        "County": "Brown",
        "confirmed_cases": 10,
        "deaths": 0,
        "total_tested": 342,
        "lat": 39.938000,
        "lon": -90.715300
      },
      {
        "County": "Bureau",
        "confirmed_cases": 15,
        "deaths": 1,
        "total_tested": 557,
        "lat": 41.359900,
        "lon": -89.474200
      },
      {
        "County": "Calhoun",
        "confirmed_cases": 1,
        "deaths": 0,
        "total_tested": 41,
        "lat": 39.173300,
        "lon": -90.658300
      },
      {
        "County": "Carroll",
        "confirmed_cases": 14,
        "deaths": 2,
        "total_tested": 132,
        "lat": 42.038600,
        "lon": -89.962700
      },
      {
        "County": "Cass",
        "confirmed_cases": 64,
        "deaths": 0,
        "total_tested": 744,
        "lat": 39.939900,
        "lon": -90.262000
      },
      {
        "County": "Champaign",
        "confirmed_cases": 401,
        "deaths": 7,
        "total_tested": 7308,
        "lat": 40.213900,
        "lon": -88.246100
      },
      {
        "County": "Chicago",
        "confirmed_cases": 36621,
        "deaths": 1636,
        "total_tested": 166152,
        "lat": 41.789896,
        "lon": -87.627734
      },
      {
        "County": "Christian",
        "confirmed_cases": 31,
        "deaths": 4,
        "total_tested": 662,
        "lat": 39.567200,
        "lon": -89.322700
      },
      {
        "County": "Clark",
        "confirmed_cases": 9,
        "deaths": 0,
        "total_tested": 209,
        "lat": 39.382400,
        "lon": -87.776300
      },
      {
        "County": "Clay",
        "confirmed_cases": 2,
        "deaths": 0,
        "total_tested": 232,
        "lat": 38.727900,
        "lon": -88.556500
      },
      {
        "County": "Clinton",
        "confirmed_cases": 161,
        "deaths": 14,
        "total_tested": 1199,
        "lat": 38.568400,
        "lon": -89.625200
      },
      {
        "County": "Coles",
        "confirmed_cases": 81,
        "deaths": 4,
        "total_tested": 1484,
        "lat": 39.556000,
        "lon": -88.246100
      },
      {
        "County": "Cook",
        "confirmed_cases": 25597,
        "deaths": 1203,
        "total_tested": 129072,
        "lat": 42.050784,
        "lon": -87.963759
      },
      {
        "County": "Crawford",
        "confirmed_cases": 11,
        "deaths": 0,
        "total_tested": 242,
        "lat": 41.833000,
        "lon": -88.710900
      },
      {
        "County": "Cumberland",
        "confirmed_cases": 8,
        "deaths": 0,
        "total_tested": 181,
        "lat": 39.265400,
        "lon": -88.207200
      },
      {
        "County": "De Witt",
        "confirmed_cases": 4,
        "deaths": 0,
        "total_tested": 373,
        "lat": 40.181000,
        "lon": -88.903100
      },
      {
        "County": "DeKalb",
        "confirmed_cases": 251,
        "deaths": 2,
        "total_tested": 2320,
        "lat": 41.833000,
        "lon": -88.710900
      },
      {
        "County": "Douglas",
        "confirmed_cases": 23,
        "deaths": 0,
        "total_tested": 540,
        "lat": 39.761800,
        "lon": -88.207200
      },
      {
        "County": "DuPage",
        "confirmed_cases": 5904,
        "deaths": 298,
        "total_tested": 35182,
        "lat": 41.824400,
        "lon": -88.090100
      },
      {
        "County": "Edgar",
        "confirmed_cases": 0,
        "deaths": 0,
        "total_tested": 260,
        "lat": 39.713100,
        "lon": -87.776300
      },
      {
        "County": "Edwards",
        "confirmed_cases": 2,
        "deaths": 0,
        "total_tested": 101,
        "lat": 38.426800,
        "lon": -88.051000
      },
      {
        "County": "Effingham",
        "confirmed_cases": 6,
        "deaths": 1,
        "total_tested": 353,
        "lat": 39.062200,
        "lon": -88.556500
      },
      {
        "County": "Fayette",
        "confirmed_cases": 19,
        "deaths": 2,
        "total_tested": 288,
        "lat": 39.067000,
        "lon": -89.017900
      },
      {
        "County": "Ford",
        "confirmed_cases": 17,
        "deaths": 1,
        "total_tested": 319,
        "lat": 40.498900,
        "lon": -88.207200
      },
      {
        "County": "Franklin",
        "confirmed_cases": 11,
        "deaths": 0,
        "total_tested": 902,
        "lat": 38.015700,
        "lon": -88.903100
      },
      {
        "County": "Fulton",
        "confirmed_cases": 8,
        "deaths": 0,
        "total_tested": 451,
        "lat": 40.553200,
        "lon": -90.224500
      },
      {
        "County": "Gallatin",
        "confirmed_cases": 2,
        "deaths": 0,
        "total_tested": 66,
        "lat": 37.710800,
        "lon": -88.246100
      },
      {
        "County": "Greene",
        "confirmed_cases": 4,
        "deaths": 0,
        "total_tested": 169,
        "lat": 39.403000,
        "lon": -90.374800
      },
      {
        "County": "Grundy",
        "confirmed_cases": 74,
        "deaths": 1,
        "total_tested": 1039,
        "lat": 41.350100,
        "lon": -88.401600
      },
      {
        "County": "Hamilton",
        "confirmed_cases": 2,
        "deaths": 0,
        "total_tested": 124,
        "lat": 38.054300,
        "lon": -88.556500
      },
      {
        "County": "Hancock",
        "confirmed_cases": 12,
        "deaths": 0,
        "total_tested": 455,
        "lat": 40.384900,
        "lon": -91.135300
      },
      {
        "County": "Hardin",
        "confirmed_cases": 1,
        "deaths": 0,
        "total_tested": 38,
        "lat": 37.499500,
        "lon": -88.362800
      },
      {
        "County": "Henderson",
        "confirmed_cases": 8,
        "deaths": 0,
        "total_tested": 151,
        "lat": 40.833600,
        "lon": -90.943800
      },
      {
        "County": "Henry",
        "confirmed_cases": 64,
        "deaths": 0,
        "total_tested": 956,
        "lat": 41.361100,
        "lon": -90.074700
      },
      {
        "County": "Iroquois",
        "confirmed_cases": 117,
        "deaths": 3,
        "total_tested": 799,
        "lat": 40.774000,
        "lon": -87.697600
      },
      {
        "County": "Jackson",
        "confirmed_cases": 181,
        "deaths": 10,
        "total_tested": 1633,
        "lat": 37.721800,
        "lon": -89.322700
      },
      {
        "County": "Jasper",
        "confirmed_cases": 45,
        "deaths": 7,
        "total_tested": 332,
        "lat": 39.055500,
        "lon": -88.090100
      },
      {
        "County": "Jefferson",
        "confirmed_cases": 98,
        "deaths": 17,
        "total_tested": 995,
        "lat": 38.226700,
        "lon": -88.864700
      },
      {
        "County": "Jersey",
        "confirmed_cases": 18,
        "deaths": 1,
        "total_tested": 190,
        "lat": 39.070500,
        "lon": -90.374800
      },
      {
        "County": "Jo Daviess",
        "confirmed_cases": 18,
        "deaths": 0,
        "total_tested": 383,
        "lat": 42.314900,
        "lon": -90.224500
      },
      {
        "County": "Johnson",
        "confirmed_cases": 7,
        "deaths": 0,
        "total_tested": 201,
        "lat": 37.420400,
        "lon": -88.903100
      },
      {
        "County": "Kane",
        "confirmed_cases": 4396,
        "deaths": 115,
        "total_tested": 19326,
        "lat": 41.987900,
        "lon": -88.401600
      },
      {
        "County": "Kankakee",
        "confirmed_cases": 669,
        "deaths": 31,
        "total_tested": 5013,
        "lat": 41.179100,
        "lon": -87.776300
      },
      {
        "County": "Kendall",
        "confirmed_cases": 563,
        "deaths": 17,
        "total_tested": 3322,
        "lat": 41.550700,
        "lon": -88.440400
      },
      {
        "County": "Knox",
        "confirmed_cases": 87,
        "deaths": 0,
        "total_tested": 1337,
        "lat": 40.877600,
        "lon": -90.224500
      },
      {
        "County": "Lake",
        "confirmed_cases": 6489,
        "deaths": 215,
        "total_tested": 28199,
        "lat": 42.368900,
        "lon": -87.827200
      },
      {
        "County": "LaSalle",
        "confirmed_cases": 120,
        "deaths": 8,
        "total_tested": 2220,
        "lat": 41.436400,
        "lon": -88.941400
      },
      {
        "County": "Lawrence",
        "confirmed_cases": 4,
        "deaths": 0,
        "total_tested": 226,
        "lat": 38.715800,
        "lon": -87.776300
      },
      {
        "County": "Lee",
        "confirmed_cases": 74,
        "deaths": 1,
        "total_tested": 979,
        "lat": 41.679000,
        "lon": -89.322700
      },
      {
        "County": "Livingston",
        "confirmed_cases": 26,
        "deaths": 1,
        "total_tested": 651,
        "lat": 40.868900,
        "lon": -88.556500
      },
      {
        "County": "Logan",
        "confirmed_cases": 10,
        "deaths": 0,
        "total_tested": 792,
        "lat": 40.061300,
        "lon": -89.322700
      },
      {
        "County": "Macon",
        "confirmed_cases": 165,
        "deaths": 17,
        "total_tested": 1901,
        "lat": 39.894900,
        "lon": -89.017900
      },
      {
        "County": "Macoupin",
        "confirmed_cases": 41,
        "deaths": 1,
        "total_tested": 1546,
        "lat": 39.237500,
        "lon": -89.925300
      },
      {
        "County": "Madison",
        "confirmed_cases": 490,
        "deaths": 42,
        "total_tested": 3842,
        "lat": 38.904100,
        "lon": -89.925300
      },
      {
        "County": "Marion",
        "confirmed_cases": 48,
        "deaths": 0,
        "total_tested": 1064,
        "lat": 38.731300,
        "lon": -88.864700
      },
      {
        "County": "Marshall",
        "confirmed_cases": 5,
        "deaths": 0,
        "total_tested": 204,
        "lat": 40.997300,
        "lon": -89.360600
      },
      {
        "County": "Mason",
        "confirmed_cases": 16,
        "deaths": 0,
        "total_tested": 426,
        "lat": 40.227100,
        "lon": -89.925300
      },
      {
        "County": "Massac",
        "confirmed_cases": 6,
        "deaths": 0,
        "total_tested": 170,
        "lat": 37.247800,
        "lon": -88.749400
      },
      {
        "County": "McDonough",
        "confirmed_cases": 64,
        "deaths": 2,
        "total_tested": 784,
        "lat": 40.388500,
        "lon": -90.677300
      },
      {
        "County": "McHenry",
        "confirmed_cases": 1179,
        "deaths": 62,
        "total_tested": 7663,
        "lat": 42.304000,
        "lon": -88.401600
      },
      {
        "County": "McLean",
        "confirmed_cases": 170,
        "deaths": 6,
        "total_tested": 4551,
        "lat": 40.547800,
        "lon": -88.864700
      },
      {
        "County": "Menard",
        "confirmed_cases": 17,
        "deaths": 0,
        "total_tested": 384,
        "lat": 40.022100,
        "lon": -89.813000
      },
      {
        "County": "Mercer",
        "confirmed_cases": 14,
        "deaths": 0,
        "total_tested": 265,
        "lat": 41.198500,
        "lon": -90.677300
      },
      {
        "County": "Monroe",
        "confirmed_cases": 87,
        "deaths": 11,
        "total_tested": 386,
        "lat": 38.274300,
        "lon": -90.187000
      },
      {
        "County": "Montgomery",
        "confirmed_cases": 38,
        "deaths": 1,
        "total_tested": 811,
        "lat": 39.236400,
        "lon": -89.474200
      },
      {
        "County": "Morgan",
        "confirmed_cases": 36,
        "deaths": 1,
        "total_tested": 795,
        "lat": 39.734100,
        "lon": -90.224500
      },
      {
        "County": "Moultrie",
        "confirmed_cases": 9,
        "deaths": 0,
        "total_tested": 207,
        "lat": 39.602100,
        "lon": -88.595200
      },
      {
        "County": "Ogle",
        "confirmed_cases": 170,
        "deaths": 2,
        "total_tested": 1761,
        "lat": 41.997000,
        "lon": -89.322700
      },
      {
        "County": "Out Of State",
        "confirmed_cases": 84,
        "deaths": 1,
        "total_tested": 1612,
        "lat": 0.000000,
        "lon": 0.000000
      },
      {
        "County": "Peoria",
        "confirmed_cases": 159,
        "deaths": 6,
        "total_tested": 5649,
        "lat": 40.715600,
        "lon": -89.775500
      },
      {
        "County": "Perry",
        "confirmed_cases": 39,
        "deaths": 0,
        "total_tested": 533,
        "lat": 38.061200,
        "lon": -89.322700
      },
      {
        "County": "Piatt",
        "confirmed_cases": 9,
        "deaths": 0,
        "total_tested": 373,
        "lat": 40.054400,
        "lon": -88.855650
      },
      {
        "County": "Pike",
        "confirmed_cases": 1,
        "deaths": 0,
        "total_tested": 131,
        "lat": 39.566200,
        "lon": -90.829400
      },
      {
        "County": "Pope",
        "confirmed_cases": 1,
        "deaths": 0,
        "total_tested": 40,
        "lat": 37.417100,
        "lon": -88.595200
      },
      {
        "County": "Pulaski",
        "confirmed_cases": 40,
        "deaths": 0,
        "total_tested": 189,
        "lat": 37.251200,
        "lon": -89.132500
      },
      {
        "County": "Putnam",
        "confirmed_cases": 2,
        "deaths": 0,
        "total_tested": 83,
        "lat": 41.238500,
        "lon": -89.284700
      },
      {
        "County": "Randolph",
        "confirmed_cases": 236,
        "deaths": 3,
        "total_tested": 1322,
        "lat": 38.062900,
        "lon": -89.775500
      },
      {
        "County": "Richland",
        "confirmed_cases": 3,
        "deaths": 0,
        "total_tested": 401,
        "lat": 38.721300,
        "lon": -88.090100
      },
      {
        "County": "Rock Island",
        "confirmed_cases": 577,
        "deaths": 18,
        "total_tested": 3315,
        "lat": 41.509500,
        "lon": -90.578700
      },
      {
        "County": "Saline",
        "confirmed_cases": 6,
        "deaths": 0,
        "total_tested": 370,
        "lat": 37.715000,
        "lon": -88.556500
      },
      {
        "County": "Sangamon",
        "confirmed_cases": 307,
        "deaths": 25,
        "total_tested": 7708,
        "lat": 39.733700,
        "lon": -89.625200
      },
      {
        "County": "Schuyler",
        "confirmed_cases": 7,
        "deaths": 0,
        "total_tested": 181,
        "lat": 40.184500,
        "lon": -90.639400
      },
      {
        "County": "Scott",
        "confirmed_cases": 0,
        "deaths": 0,
        "total_tested": 102,
        "lat": 39.609500,
        "lon": -90.488000
      },
      {
        "County": "Shelby",
        "confirmed_cases": 13,
        "deaths": 1,
        "total_tested": 363,
        "lat": 39.398100,
        "lon": -88.864700
      },
      {
        "County": "St. Clair",
        "confirmed_cases": 805,
        "deaths": 65,
        "total_tested": 4838,
        "lat": 38.400800,
        "lon": -89.925300
      },
      {
        "County": "Stark",
        "confirmed_cases": 1,
        "deaths": 0,
        "total_tested": 82,
        "lat": 41.079600,
        "lon": -89.813000
      },
      {
        "County": "Stephenson",
        "confirmed_cases": 150,
        "deaths": 1,
        "total_tested": 1077,
        "lat": 42.314500,
        "lon": -89.625200
      },
      {
        "County": "Tazewell",
        "confirmed_cases": 63,
        "deaths": 3,
        "total_tested": 3812,
        "lat": 40.552200,
        "lon": -89.474200
      },
      {
        "County": "Unassigned",
        "confirmed_cases": 67,
        "deaths": 0,
        "total_tested": 13047,
        "lat": 39.839888,
        "lon": -89.510168
      },
      {
        "County": "Union",
        "confirmed_cases": 122,
        "deaths": 4,
        "total_tested": 911,
        "lat": 37.508700,
        "lon": -89.284700
      },
      {
        "County": "Vermilion",
        "confirmed_cases": 30,
        "deaths": 1,
        "total_tested": 1556,
        "lat": 40.122500,
        "lon": -87.697600
      },
      {
        "County": "Wabash",
        "confirmed_cases": 1,
        "deaths": 0,
        "total_tested": 203,
        "lat": 38.422600,
        "lon": -87.815700
      },
      {
        "County": "Warren",
        "confirmed_cases": 108,
        "deaths": 0,
        "total_tested": 582,
        "lat": 40.875900,
        "lon": -90.677300
      },
      {
        "County": "Washington",
        "confirmed_cases": 17,
        "deaths": 0,
        "total_tested": 301,
        "lat": 38.398900,
        "lon": -89.322700
      },
      {
        "County": "Wayne",
        "confirmed_cases": 9,
        "deaths": 1,
        "total_tested": 459,
        "lat": 38.390000,
        "lon": -88.401600
      },
      {
        "County": "White",
        "confirmed_cases": 2,
        "deaths": 0,
        "total_tested": 242,
        "lat": 38.050100,
        "lon": -88.246100
      },
      {
        "County": "Whiteside",
        "confirmed_cases": 122,
        "deaths": 8,
        "total_tested": 1549,
        "lat": 41.760600,
        "lon": -89.850500
      },
      {
        "County": "Will",
        "confirmed_cases": 4388,
        "deaths": 240,
        "total_tested": 25612,
        "lat": 41.505500,
        "lon": -88.090100
      },
      {
        "County": "Williamson",
        "confirmed_cases": 52,
        "deaths": 1,
        "total_tested": 1585,
        "lat": 37.718300,
        "lon": -88.864700
      },
      {
        "County": "Winnebago",
        "confirmed_cases": 1490,
        "deaths": 35,
        "total_tested": 11839,
        "lat": 42.312100,
        "lon": -89.170600
      },
      {
        "County": "Woodford",
        "confirmed_cases": 14,
        "deaths": 1,
        "total_tested": 720,
        "lat": 40.712900,
        "lon": -89.170600
      }
    ]
  },

  "state_testing_results": {
    "values": [
      {
        "testDate": "3/10/2020",
        "total_tested": 326,
        "confirmed_cases": 20,
        "deaths": 0
      },
      {
        "testDate": "3/11/2020",
        "total_tested": 367,
        "confirmed_cases": 25,
        "deaths": 0
      },
      {
        "testDate": "3/12/2020",
        "total_tested": 418,
        "confirmed_cases": 32,
        "deaths": 0
      },
      {
        "testDate": "3/13/2020",
        "total_tested": 444,
        "confirmed_cases": 46,
        "deaths": 0
      },
      {
        "testDate": "3/14/2020",
        "total_tested": 708,
        "confirmed_cases": 64,
        "deaths": 0
      },
      {
        "testDate": "3/15/2020",
        "total_tested": 932,
        "confirmed_cases": 93,
        "deaths": 0
      },
      {
        "testDate": "3/16/2020",
        "total_tested": 1143,
        "confirmed_cases": 105,
        "deaths": 0
      },
      {
        "testDate": "3/17/2020",
        "total_tested": 1500,
        "confirmed_cases": 160,
        "deaths": 1
      },
      {
        "testDate": "3/18/2020",
        "total_tested": 2052,
        "confirmed_cases": 288,
        "deaths": 3
      },
      {
        "testDate": "3/19/2020",
        "total_tested": 3151,
        "confirmed_cases": 422,
        "deaths": 4
      },
      {
        "testDate": "3/20/2020",
        "total_tested": 4286,
        "confirmed_cases": 585,
        "deaths": 5
      },
      {
        "testDate": "3/21/2020",
        "total_tested": 6247,
        "confirmed_cases": 753,
        "deaths": 6
      },
      {
        "testDate": "3/22/2020",
        "total_tested": 8374,
        "confirmed_cases": 1046,
        "deaths": 9
      },
      {
        "testDate": "3/23/2020",
        "total_tested": 9868,
        "confirmed_cases": 1283,
        "deaths": 12
      },
      {
        "testDate": "3/24/2020",
        "total_tested": 11485,
        "confirmed_cases": 1535,
        "deaths": 16
      },
      {
        "testDate": "3/25/2020",
        "total_tested": 14209,
        "confirmed_cases": 1865,
        "deaths": 19
      },
      {
        "testDate": "3/26/2020",
        "total_tested": 16631,
        "confirmed_cases": 2538,
        "deaths": 26
      },
      {
        "testDate": "3/27/2020",
        "total_tested": 21542,
        "confirmed_cases": 3026,
        "deaths": 34
      },
      {
        "testDate": "3/28/2020",
        "total_tested": 25429,
        "confirmed_cases": 3491,
        "deaths": 47
      },
      {
        "testDate": "3/29/2020",
        "total_tested": 27762,
        "confirmed_cases": 4596,
        "deaths": 65
      },
      {
        "testDate": "3/30/2020",
        "total_tested": 30446,
        "confirmed_cases": 5056,
        "deaths": 72
      },
      {
        "testDate": "3/31/2020",
        "total_tested": 35225,
        "confirmed_cases": 5994,
        "deaths": 99
      },
      {
        "testDate": "4/1/2020",
        "total_tested": 40384,
        "confirmed_cases": 6980,
        "deaths": 141
      },
      {
        "testDate": "4/2/2020",
        "total_tested": 43656,
        "confirmed_cases": 7695,
        "deaths": 157
      },
      {
        "testDate": "4/3/2020",
        "total_tested": 48048,
        "confirmed_cases": 8904,
        "deaths": 210
      },
      {
        "testDate": "4/4/2020",
        "total_tested": 53581,
        "confirmed_cases": 10357,
        "deaths": 243
      },
      {
        "testDate": "4/5/2020",
        "total_tested": 58983,
        "confirmed_cases": 11256,
        "deaths": 274
      },
      {
        "testDate": "4/6/2020",
        "total_tested": 62942,
        "confirmed_cases": 12262,
        "deaths": 307
      },
      {
        "testDate": "4/7/2020",
        "total_tested": 68732,
        "confirmed_cases": 13549,
        "deaths": 380
      },
      {
        "testDate": "4/8/2020",
        "total_tested": 75066,
        "confirmed_cases": 15078,
        "deaths": 462
      },
      {
        "testDate": "4/9/2020",
        "total_tested": 80857,
        "confirmed_cases": 16422,
        "deaths": 528
      },
      {
        "testDate": "4/10/2020",
        "total_tested": 87527,
        "confirmed_cases": 17887,
        "deaths": 596
      },
      {
        "testDate": "4/11/2020",
        "total_tested": 92779,
        "confirmed_cases": 19180,
        "deaths": 677
      },
      {
        "testDate": "4/12/2020",
        "total_tested": 100735,
        "confirmed_cases": 20852,
        "deaths": 720
      },
      {
        "testDate": "4/13/2020",
        "total_tested": 105768,
        "confirmed_cases": 22025,
        "deaths": 794
      },
      {
        "testDate": "4/14/2020",
        "total_tested": 110616,
        "confirmed_cases": 23247,
        "deaths": 868
      },
      {
        "testDate": "4/15/2020",
        "total_tested": 116929,
        "confirmed_cases": 24593,
        "deaths": 948
      },
      {
        "testDate": "4/16/2020",
        "total_tested": 122589,
        "confirmed_cases": 25733,
        "deaths": 1072
      },
      {
        "testDate": "4/17/2020",
        "total_tested": 130163,
        "confirmed_cases": 27575,
        "deaths": 1134
      },
      {
        "testDate": "4/18/2020",
        "total_tested": 137404,
        "confirmed_cases": 29160,
        "deaths": 1259
      },
      {
        "testDate": "4/19/2020",
        "total_tested": 143318,
        "confirmed_cases": 30357,
        "deaths": 1290
      },
      {
        "testDate": "4/20/2020",
        "total_tested": 148358,
        "confirmed_cases": 31508,
        "deaths": 1349
      },
      {
        "testDate": "4/21/2020",
        "total_tested": 154997,
        "confirmed_cases": 33059,
        "deaths": 1468
      },
      {
        "testDate": "4/22/2020",
        "total_tested": 164346,
        "confirmed_cases": 35108,
        "deaths": 1565
      },
      {
        "testDate": "4/23/2020",
        "total_tested": 173508,
        "confirmed_cases": 36934,
        "deaths": 1688
      },
      {
        "testDate": "4/24/2020",
        "total_tested": 189632,
        "confirmed_cases": 39658,
        "deaths": 1795
      },
      {
        "testDate": "4/25/2020",
        "total_tested": 201617,
        "confirmed_cases": 41777,
        "deaths": 1874
      },
      {
        "testDate": "4/26/2020",
        "total_tested": 214952,
        "confirmed_cases": 43903,
        "deaths": 1933
      },
      {
        "testDate": "4/27/2020",
        "total_tested": 227628,
        "confirmed_cases": 45883,
        "deaths": 1983
      },
      {
        "testDate": "4/28/2020",
        "total_tested": 242189,
        "confirmed_cases": 48102,
        "deaths": 2125
      },
      {
        "testDate": "4/29/2020",
        "total_tested": 256667,
        "confirmed_cases": 50355,
        "deaths": 2215
      },
      {
        "testDate": "4/30/2020",
        "total_tested": 269867,
        "confirmed_cases": 52918,
        "deaths": 2355
      },
      {
        "testDate": "5/1/2020",
        "total_tested": 284688,
        "confirmed_cases": 56055,
        "deaths": 2457
      },
      {
        "testDate": "5/2/2020",
        "total_tested": 299896,
        "confirmed_cases": 58505,
        "deaths": 2559
      },
      {
        "testDate": "5/3/2020",
        "total_tested": 319313,
        "confirmed_cases": 61499,
        "deaths": 2618
      },
      {
        "testDate": "5/4/2020",
        "total_tested": 333147,
        "confirmed_cases": 63840,
        "deaths": 2662
      },
      {
        "testDate": "5/5/2020",
        "total_tested": 346286,
        "confirmed_cases": 65962,
        "deaths": 2838
      },
      {
        "testDate": "5/6/2020",
        "total_tested": 361260,
        "confirmed_cases": 68232,
        "deaths": 2974
      },
      {
        "testDate": "5/7/2020",
        "total_tested": 379043,
        "confirmed_cases": 70873,
        "deaths": 3111
      },
      {
        "testDate": "5/8/2020",
        "total_tested": 399714,
        "confirmed_cases": 73760,
        "deaths": 3241
      },
      {
        "testDate": "5/9/2020",
        "total_tested": 416331,
        "confirmed_cases": 76085,
        "deaths": 3349
      },
      {
        "testDate": "5/10/2020",
        "total_tested": 429984,
        "confirmed_cases": 77741,
        "deaths": 3406
      },
      {
        "testDate": "5/11/2020",
        "total_tested": 442425,
        "confirmed_cases": 79007,
        "deaths": 3459
      },
      {
        "testDate": "5/12/2020",
        "total_tested": 471691,
        "confirmed_cases": 83021,
        "deaths": 3601
      },
      {
        "testDate": "5/13/2020",
        "total_tested": 489359,
        "confirmed_cases": 84698,
        "deaths": 3792
      },
      {
        "testDate": "5/14/2020",
        "total_tested": 512037,
        "confirmed_cases": 87937,
        "deaths": 3928
      },
      {
        "testDate": "5/15/2020",
        "total_tested": 538602,
        "confirmed_cases": 90369,
        "deaths": 4058
      },
      {
        "testDate": "5/16/2020",
        "total_tested": 561649,
        "confirmed_cases": 92457,
        "deaths": 4129
      },
      {
        "testDate": "5/17/2020",
        "total_tested": 581944,
        "confirmed_cases": 94191,
        "deaths": 4177
      }
    ]
  },
  "demographics": {
    "age": [
      {
        "age_group": "Unknown",
        "count": 64,
        "tested": 40601,
        "deaths": 0,
        "demographics": {
          "race": [
            {
              "description": "White",
              "count": 4,
              "tested": 95,
              "deaths": 0,
              "color": "rgb(31,119,180)"
            },
            {
              "description": "Black",
              "count": 2,
              "tested": 4,
              "deaths": 0,
              "color": "rgb(31,119,180)"
            },
            {
              "description": "Left Blank",
              "count": 43,
              "tested": 40411,
              "deaths": 0,
              "color": "rgb(255,127,14)"
            },
            {
              "description": "Other",
              "count": 1,
              "tested": 10,
              "deaths": 0,
              "color": "rgb(148,103,189)"
            },
            {
              "description": "Asian",
              "count": 0,
              "tested": 7,
              "deaths": 0,
              "color": "rgb(140,86,75)"
            },
            {
              "description": "Hispanic",
              "count": 14,
              "tested": 74,
              "deaths": 0,
              "color": "rgb(214,39,40)"
            },
            {
              "description": "NH/PI*",
              "count": 0,
              "tested": 0,
              "deaths": 0,
              "color": "rgb(127,127,127)"
            },
            {
              "description": "AI/AN**",
              "count": 0,
              "tested": 0,
              "deaths": 0,
              "color": "rgb(31,119,180)"
            }
          ]
        }
      },
      {
        "age_group": "<20",
        "count": 5126,
        "tested": 33478,
        "deaths": 3,
        "demographics": {
          "race": [
            {
              "description": "White",
              "count": 508,
              "tested": 7079,
              "deaths": 1,
              "color": "rgb(31,119,180)"
            },
            {
              "description": "Black",
              "count": 626,
              "tested": 3690,
              "deaths": 1,
              "color": "rgb(31,119,180)"
            },
            {
              "description": "Left Blank",
              "count": 1433,
              "tested": 14630,
              "deaths": 0,
              "color": "rgb(255,127,14)"
            },
            {
              "description": "Other",
              "count": 263,
              "tested": 1577,
              "deaths": 0,
              "color": "rgb(148,103,189)"
            },
            {
              "description": "Asian",
              "count": 81,
              "tested": 520,
              "deaths": 0,
              "color": "rgb(140,86,75)"
            },
            {
              "description": "Hispanic",
              "count": 2200,
              "tested": 5941,
              "deaths": 1,
              "color": "rgb(214,39,40)"
            },
            {
              "description": "NH/PI*",
              "count": 8,
              "tested": 22,
              "deaths": 0,
              "color": "rgb(127,127,127)"
            },
            {
              "description": "AI/AN**",
              "count": 7,
              "tested": 19,
              "deaths": 0,
              "color": "rgb(31,119,180)"
            }
          ]
        }
      },
      {
        "age_group": "20-29",
        "count": 14243,
        "tested": 75792,
        "deaths": 18,
        "demographics": {
          "race": [
            {
              "description": "White",
              "count": 2276,
              "tested": 15211,
              "deaths": 0,
              "color": "rgb(31,119,180)"
            },
            {
              "description": "Black",
              "count": 2146,
              "tested": 6797,
              "deaths": 9,
              "color": "rgb(31,119,180)"
            },
            {
              "description": "Left Blank",
              "count": 3726,
              "tested": 38187,
              "deaths": 0,
              "color": "rgb(255,127,14)"
            },
            {
              "description": "Other",
              "count": 598,
              "tested": 3922,
              "deaths": 0,
              "color": "rgb(148,103,189)"
            },
            {
              "description": "Asian",
              "count": 376,
              "tested": 1232,
              "deaths": 0,
              "color": "rgb(140,86,75)"
            },
            {
              "description": "Hispanic",
              "count": 5079,
              "tested": 10294,
              "deaths": 9,
              "color": "rgb(214,39,40)"
            },
            {
              "description": "NH/PI*",
              "count": 28,
              "tested": 92,
              "deaths": 0,
              "color": "rgb(127,127,127)"
            },
            {
              "description": "AI/AN**",
              "count": 14,
              "tested": 57,
              "deaths": 0,
              "color": "rgb(31,119,180)"
            }
          ]
        }
      },
      {
        "age_group": "30-39",
        "count": 15437,
        "tested": 89503,
        "deaths": 62,
        "demographics": {
          "race": [
            {
              "description": "White",
              "count": 2303,
              "tested": 19227,
              "deaths": 7,
              "color": "rgb(31,119,180)"
            },
            {
              "description": "Black",
              "count": 2442,
              "tested": 7903,
              "deaths": 28,
              "color": "rgb(31,119,180)"
            },
            {
              "description": "Left Blank",
              "count": 4024,
              "tested": 45520,
              "deaths": 0,
              "color": "rgb(255,127,14)"
            },
            {
              "description": "Other",
              "count": 658,
              "tested": 4444,
              "deaths": 0,
              "color": "rgb(148,103,189)"
            },
            {
              "description": "Asian",
              "count": 495,
              "tested": 1944,
              "deaths": 2,
              "color": "rgb(140,86,75)"
            },
            {
              "description": "Hispanic",
              "count": 5453,
              "tested": 10277,
              "deaths": 25,
              "color": "rgb(214,39,40)"
            },
            {
              "description": "NH/PI*",
              "count": 39,
              "tested": 110,
              "deaths": 0,
              "color": "rgb(127,127,127)"
            },
            {
              "description": "AI/AN**",
              "count": 23,
              "tested": 78,
              "deaths": 0,
              "color": "rgb(31,119,180)"
            }
          ]
        }
      },
      {
        "age_group": "40-49",
        "count": 17115,
        "tested": 87670,
        "deaths": 142,
        "demographics": {
          "race": [
            {
              "description": "White",
              "count": 2514,
              "tested": 17538,
              "deaths": 14,
              "color": "rgb(31,119,180)"
            },
            {
              "description": "Black",
              "count": 2771,
              "tested": 8274,
              "deaths": 50,
              "color": "rgb(31,119,180)"
            },
            {
              "description": "Left Blank",
              "count": 4369,
              "tested": 45159,
              "deaths": 1,
              "color": "rgb(255,127,14)"
            },
            {
              "description": "Other",
              "count": 698,
              "tested": 4103,
              "deaths": 1,
              "color": "rgb(148,103,189)"
            },
            {
              "description": "Asian",
              "count": 518,
              "tested": 1764,
              "deaths": 8,
              "color": "rgb(140,86,75)"
            },
            {
              "description": "Hispanic",
              "count": 6178,
              "tested": 10664,
              "deaths": 67,
              "color": "rgb(214,39,40)"
            },
            {
              "description": "NH/PI*",
              "count": 40,
              "tested": 97,
              "deaths": 0,
              "color": "rgb(127,127,127)"
            },
            {
              "description": "AI/AN**",
              "count": 27,
              "tested": 71,
              "deaths": 1,
              "color": "rgb(31,119,180)"
            }
          ]
        }
      },
      {
        "age_group": "50-59",
        "count": 17006,
        "tested": 92986,
        "deaths": 354,
        "demographics": {
          "race": [
            {
              "description": "White",
              "count": 3441,
              "tested": 22698,
              "deaths": 73,
              "color": "rgb(31,119,180)"
            },
            {
              "description": "Black",
              "count": 3144,
              "tested": 9652,
              "deaths": 129,
              "color": "rgb(31,119,180)"
            },
            {
              "description": "Left Blank",
              "count": 4215,
              "tested": 47078,
              "deaths": 13,
              "color": "rgb(255,127,14)"
            },
            {
              "description": "Other",
              "count": 687,
              "tested": 3731,
              "deaths": 3,
              "color": "rgb(148,103,189)"
            },
            {
              "description": "Asian",
              "count": 480,
              "tested": 1575,
              "deaths": 16,
              "color": "rgb(140,86,75)"
            },
            {
              "description": "Hispanic",
              "count": 4957,
              "tested": 8089,
              "deaths": 118,
              "color": "rgb(214,39,40)"
            },
            {
              "description": "NH/PI*",
              "count": 46,
              "tested": 80,
              "deaths": 1,
              "color": "rgb(127,127,127)"
            },
            {
              "description": "AI/AN**",
              "count": 36,
              "tested": 83,
              "deaths": 1,
              "color": "rgb(31,119,180)"
            }
          ]
        }
      },
      {
        "age_group": "60-69",
        "count": 11841,
        "tested": 77380,
        "deaths": 729,
        "demographics": {
          "race": [
            {
              "description": "White",
              "count": 3127,
              "tested": 22695,
              "deaths": 237,
              "color": "rgb(31,119,180)"
            },
            {
              "description": "Black",
              "count": 2557,
              "tested": 8941,
              "deaths": 286,
              "color": "rgb(31,119,180)"
            },
            {
              "description": "Left Blank",
              "count": 2839,
              "tested": 37527,
              "deaths": 12,
              "color": "rgb(255,127,14)"
            },
            {
              "description": "Other",
              "count": 415,
              "tested": 2618,
              "deaths": 7,
              "color": "rgb(148,103,189)"
            },
            {
              "description": "Asian",
              "count": 438,
              "tested": 1277,
              "deaths": 24,
              "color": "rgb(140,86,75)"
            },
            {
              "description": "Hispanic",
              "count": 2409,
              "tested": 4220,
              "deaths": 161,
              "color": "rgb(214,39,40)"
            },
            {
              "description": "NH/PI*",
              "count": 37,
              "tested": 49,
              "deaths": 0,
              "color": "rgb(127,127,127)"
            },
            {
              "description": "AI/AN**",
              "count": 19,
              "tested": 53,
              "deaths": 2,
              "color": "rgb(31,119,180)"
            }
          ]
        }
      },
      {
        "age_group": "70-79",
        "count": 6665,
        "tested": 46369,
        "deaths": 1020,
        "demographics": {
          "race": [
            {
              "description": "White",
              "count": 2145,
              "tested": 16446,
              "deaths": 423,
              "color": "rgb(31,119,180)"
            },
            {
              "description": "Black",
              "count": 1688,
              "tested": 5327,
              "deaths": 363,
              "color": "rgb(31,119,180)"
            },
            {
              "description": "Left Blank",
              "count": 1482,
              "tested": 20748,
              "deaths": 17,
              "color": "rgb(255,127,14)"
            },
            {
              "description": "Other",
              "count": 202,
              "tested": 1424,
              "deaths": 11,
              "color": "rgb(148,103,189)"
            },
            {
              "description": "Asian",
              "count": 215,
              "tested": 693,
              "deaths": 51,
              "color": "rgb(140,86,75)"
            },
            {
              "description": "Hispanic",
              "count": 898,
              "tested": 1654,
              "deaths": 152,
              "color": "rgb(214,39,40)"
            },
            {
              "description": "NH/PI*",
              "count": 15,
              "tested": 34,
              "deaths": 1,
              "color": "rgb(127,127,127)"
            },
            {
              "description": "AI/AN**",
              "count": 20,
              "tested": 43,
              "deaths": 2,
              "color": "rgb(31,119,180)"
            }
          ]
        }
      },
      {
        "age_group": "80+",
        "count": 6694,
        "tested": 38165,
        "deaths": 1849,
        "demographics": {
          "race": [
            {
              "description": "White",
              "count": 2900,
              "tested": 16120,
              "deaths": 1030,
              "color": "rgb(31,119,180)"
            },
            {
              "description": "Black",
              "count": 1240,
              "tested": 3352,
              "deaths": 450,
              "color": "rgb(31,119,180)"
            },
            {
              "description": "Left Blank",
              "count": 1612,
              "tested": 16135,
              "deaths": 52,
              "color": "rgb(255,127,14)"
            },
            {
              "description": "Other",
              "count": 121,
              "tested": 949,
              "deaths": 9,
              "color": "rgb(148,103,189)"
            },
            {
              "description": "Asian",
              "count": 227,
              "tested": 551,
              "deaths": 93,
              "color": "rgb(140,86,75)"
            },
            {
              "description": "Hispanic",
              "count": 575,
              "tested": 1014,
              "deaths": 214,
              "color": "rgb(214,39,40)"
            },
            {
              "description": "NH/PI*",
              "count": 6,
              "tested": 22,
              "deaths": 0,
              "color": "rgb(127,127,127)"
            },
            {
              "description": "AI/AN**",
              "count": 13,
              "tested": 22,
              "deaths": 1,
              "color": "rgb(31,119,180)"
            }
          ]
        }
      }
    ],
    "race": [
      {
        "description": "White",
        "count": 19218,
        "tested": 137109,
        "deaths": 1785,
        "color": "rgb(31,119,180)"
      },
      {
        "description": "Black",
        "count": 16616,
        "tested": 53940,
        "deaths": 1316,
        "color": "rgb(255,127,14)"
      },
      {
        "description": "Left Blank",
        "count": 23743,
        "tested": 305395,
        "deaths": 95,
        "color": "rgb(44,160,44)"
      },
      {
        "description": "Other",
        "count": 3643,
        "tested": 22778,
        "deaths": 31,
        "color": "rgb(148,103,189)"
      },
      {
        "description": "Asian",
        "count": 2830,
        "tested": 9563,
        "deaths": 194,
        "color": "rgb(140,86,75)"
      },
      {
        "description": "Hispanic",
        "count": 27763,
        "tested": 52227,
        "deaths": 747,
        "color": "rgb(214,39,40)"
      },
      {
        "description": "NH/PI*",
        "count": 219,
        "tested": 506,
        "deaths": 2,
        "color": "rgb(127,127,127)"
      },
      {
        "description": "AI/AN**",
        "count": 159,
        "tested": 426,
        "deaths": 7,
        "color": "rgb(31,119,180)"
      }
    ],
    "gender": [
      {
        "description": "Male",
        "count": 44809,
        "tested": 230963,
        "deaths": 2310,
        "color": "rgb(31,119,180)"
      },
      {
        "description": "Female",
        "count": 47296,
        "tested": 292398,
        "deaths": 1862,
        "color": "rgb(255,127,14)"
      },
      {
        "description": "Unknown/Left Blank",
        "count": 2086,
        "tested": 58583,
        "deaths": 5,
        "color": "rgb(44,160,44)"
      }
    ]
  }
}
