{
  "LastUpdateDate": {
    "year": 2020,
    "month": 5,
    "day": 4
  },
  "characteristics_by_county": {
    "values": [
      {
        "County": "Illinois",
        "confirmed_cases": 63840,
        "total_tested": 333147,
        "deaths": 2662,
        "lat": 39.839888,
        "lon": -89.510168
      },
      {
        "County": "Adams",
        "confirmed_cases": 40,
        "deaths": 1,
        "total_tested": 1309,
        "lat": 40.057800,
        "lon": -91.135300
      },
      {
        "County": "Alexander",
        "confirmed_cases": 4,
        "deaths": 0,
        "total_tested": 48,
        "lat": 37.167000,
        "lon": -89.360600
      },
      {
        "County": "Bond",
        "confirmed_cases": 6,
        "deaths": 1,
        "total_tested": 135,
        "lat": 38.903000,
        "lon": -89.474200
      },
      {
        "County": "Boone",
        "confirmed_cases": 144,
        "deaths": 10,
        "total_tested": 578,
        "lat": 42.348500,
        "lon": -88.826300
      },
      {
        "County": "Brown",
        "confirmed_cases": 2,
        "deaths": 0,
        "total_tested": 40,
        "lat": 39.938000,
        "lon": -90.715300
      },
      {
        "County": "Bureau",
        "confirmed_cases": 12,
        "deaths": 0,
        "total_tested": 252,
        "lat": 41.359900,
        "lon": -89.474200
      },
      {
        "County": "Calhoun",
        "confirmed_cases": 1,
        "deaths": 0,
        "total_tested": 29,
        "lat": 39.173300,
        "lon": -90.658300
      },
      {
        "County": "Carroll",
        "confirmed_cases": 10,
        "deaths": 2,
        "total_tested": 81,
        "lat": 42.038600,
        "lon": -89.962700
      },
      {
        "County": "Cass",
        "confirmed_cases": 40,
        "deaths": 0,
        "total_tested": 425,
        "lat": 39.939900,
        "lon": -90.262000
      },
      {
        "County": "Champaign",
        "confirmed_cases": 182,
        "deaths": 6,
        "total_tested": 3721,
        "lat": 40.213900,
        "lon": -88.246100
      },
      {
        "County": "Chicago",
        "confirmed_cases": 25805,
        "deaths": 1021,
        "total_tested": 104885,
        "lat": 41.789896,
        "lon": -87.627734
      },
      {
        "County": "Christian",
        "confirmed_cases": 28,
        "deaths": 4,
        "total_tested": 379,
        "lat": 39.567200,
        "lon": -89.322700
      },
      {
        "County": "Clark",
        "confirmed_cases": 5,
        "deaths": 0,
        "total_tested": 100,
        "lat": 39.382400,
        "lon": -87.776300
      },
      {
        "County": "Clay",
        "confirmed_cases": 2,
        "deaths": 0,
        "total_tested": 130,
        "lat": 38.727900,
        "lon": -88.556500
      },
      {
        "County": "Clinton",
        "confirmed_cases": 114,
        "deaths": 5,
        "total_tested": 520,
        "lat": 38.568400,
        "lon": -89.625200
      },
      {
        "County": "Coles",
        "confirmed_cases": 22,
        "deaths": 1,
        "total_tested": 385,
        "lat": 39.556000,
        "lon": -88.246100
      },
      {
        "County": "Cook",
        "confirmed_cases": 17910,
        "deaths": 781,
        "total_tested": 79625,
        "lat": 42.050784,
        "lon": -87.963759
      },
      {
        "County": "Crawford",
        "confirmed_cases": 8,
        "deaths": 0,
        "total_tested": 178,
        "lat": 41.833000,
        "lon": -88.710900
      },
      {
        "County": "Cumberland",
        "confirmed_cases": 4,
        "deaths": 0,
        "total_tested": 63,
        "lat": 39.265400,
        "lon": -88.207200
      },
      {
        "County": "De Witt",
        "confirmed_cases": 3,
        "deaths": 0,
        "total_tested": 223,
        "lat": 40.181000,
        "lon": -88.903100
      },
      {
        "County": "DeKalb",
        "confirmed_cases": 130,
        "deaths": 1,
        "total_tested": 1073,
        "lat": 41.833000,
        "lon": -88.710900
      },
      {
        "County": "Douglas",
        "confirmed_cases": 20,
        "deaths": 0,
        "total_tested": 237,
        "lat": 39.761800,
        "lon": -88.207200
      },
      {
        "County": "DuPage",
        "confirmed_cases": 3803,
        "deaths": 196,
        "total_tested": 20236,
        "lat": 41.824400,
        "lon": -88.090100
      },
      {
        "County": "Edgar",
        "confirmed_cases": 0,
        "deaths": 0,
        "total_tested": 110,
        "lat": 39.713100,
        "lon": -87.776300
      },
      {
        "County": "Edwards",
        "confirmed_cases": 0,
        "deaths": 0,
        "total_tested": 60,
        "lat": 38.426800,
        "lon": -88.051000
      },
      {
        "County": "Effingham",
        "confirmed_cases": 5,
        "deaths": 1,
        "total_tested": 140,
        "lat": 39.062200,
        "lon": -88.556500
      },
      {
        "County": "Fayette",
        "confirmed_cases": 16,
        "deaths": 2,
        "total_tested": 166,
        "lat": 39.067000,
        "lon": -89.017900
      },
      {
        "County": "Ford",
        "confirmed_cases": 9,
        "deaths": 1,
        "total_tested": 184,
        "lat": 40.498900,
        "lon": -88.207200
      },
      {
        "County": "Franklin",
        "confirmed_cases": 9,
        "deaths": 0,
        "total_tested": 565,
        "lat": 38.015700,
        "lon": -88.903100
      },
      {
        "County": "Fulton",
        "confirmed_cases": 4,
        "deaths": 1,
        "total_tested": 179,
        "lat": 40.553200,
        "lon": -90.224500
      },
      {
        "County": "Gallatin",
        "confirmed_cases": 2,
        "deaths": 0,
        "total_tested": 39,
        "lat": 37.710800,
        "lon": -88.246100
      },
      {
        "County": "Greene",
        "confirmed_cases": 3,
        "deaths": 0,
        "total_tested": 94,
        "lat": 39.403000,
        "lon": -90.374800
      },
      {
        "County": "Grundy",
        "confirmed_cases": 46,
        "deaths": 0,
        "total_tested": 683,
        "lat": 41.350100,
        "lon": -88.401600
      },
      {
        "County": "Hamilton",
        "confirmed_cases": 2,
        "deaths": 0,
        "total_tested": 69,
        "lat": 38.054300,
        "lon": -88.556500
      },
      {
        "County": "Hancock",
        "confirmed_cases": 9,
        "deaths": 0,
        "total_tested": 229,
        "lat": 40.384900,
        "lon": -91.135300
      },
      {
        "County": "Hardin",
        "confirmed_cases": 1,
        "deaths": 0,
        "total_tested": 18,
        "lat": 37.499500,
        "lon": -88.362800
      },
      {
        "County": "Henderson",
        "confirmed_cases": 4,
        "deaths": 0,
        "total_tested": 65,
        "lat": 40.833600,
        "lon": -90.943800
      },
      {
        "County": "Henry",
        "confirmed_cases": 53,
        "deaths": 0,
        "total_tested": 596,
        "lat": 41.361100,
        "lon": -90.074700
      },
      {
        "County": "Iroquois",
        "confirmed_cases": 42,
        "deaths": 1,
        "total_tested": 331,
        "lat": 40.774000,
        "lon": -87.697600
      },
      {
        "County": "Jackson",
        "confirmed_cases": 140,
        "deaths": 9,
        "total_tested": 897,
        "lat": 37.721800,
        "lon": -89.322700
      },
      {
        "County": "Jasper",
        "confirmed_cases": 48,
        "deaths": 5,
        "total_tested": 237,
        "lat": 39.055500,
        "lon": -88.090100
      },
      {
        "County": "Jefferson",
        "confirmed_cases": 87,
        "deaths": 15,
        "total_tested": 676,
        "lat": 38.226700,
        "lon": -88.864700
      },
      {
        "County": "Jersey",
        "confirmed_cases": 14,
        "deaths": 1,
        "total_tested": 116,
        "lat": 39.070500,
        "lon": -90.374800
      },
      {
        "County": "Jo Daviess",
        "confirmed_cases": 14,
        "deaths": 0,
        "total_tested": 259,
        "lat": 42.314900,
        "lon": -90.224500
      },
      {
        "County": "Johnson",
        "confirmed_cases": 4,
        "deaths": 0,
        "total_tested": 93,
        "lat": 37.420400,
        "lon": -88.903100
      },
      {
        "County": "Kane",
        "confirmed_cases": 2115,
        "deaths": 57,
        "total_tested": 8427,
        "lat": 41.987900,
        "lon": -88.401600
      },
      {
        "County": "Kankakee",
        "confirmed_cases": 383,
        "deaths": 25,
        "total_tested": 2961,
        "lat": 41.179100,
        "lon": -87.776300
      },
      {
        "County": "Kendall",
        "confirmed_cases": 326,
        "deaths": 6,
        "total_tested": 1608,
        "lat": 41.550700,
        "lon": -88.440400
      },
      {
        "County": "Knox",
        "confirmed_cases": 56,
        "deaths": 0,
        "total_tested": 679,
        "lat": 40.877600,
        "lon": -90.224500
      },
      {
        "County": "Lake",
        "confirmed_cases": 4252,
        "deaths": 151,
        "total_tested": 15417,
        "lat": 42.368900,
        "lon": -87.827200
      },
      {
        "County": "LaSalle",
        "confirmed_cases": 70,
        "deaths": 1,
        "total_tested": 1025,
        "lat": 41.436400,
        "lon": -88.941400
      },
      {
        "County": "Lawrence",
        "confirmed_cases": 4,
        "deaths": 0,
        "total_tested": 149,
        "lat": 38.715800,
        "lon": -87.776300
      },
      {
        "County": "Lee",
        "confirmed_cases": 25,
        "deaths": 0,
        "total_tested": 555,
        "lat": 41.679000,
        "lon": -89.322700
      },
      {
        "County": "Livingston",
        "confirmed_cases": 23,
        "deaths": 1,
        "total_tested": 435,
        "lat": 40.868900,
        "lon": -88.556500
      },
      {
        "County": "Logan",
        "confirmed_cases": 7,
        "deaths": 0,
        "total_tested": 438,
        "lat": 40.061300,
        "lon": -89.322700
      },
      {
        "County": "Macon",
        "confirmed_cases": 124,
        "deaths": 13,
        "total_tested": 1113,
        "lat": 39.894900,
        "lon": -89.017900
      },
      {
        "County": "Macoupin",
        "confirmed_cases": 34,
        "deaths": 0,
        "total_tested": 652,
        "lat": 39.237500,
        "lon": -89.925300
      },
      {
        "County": "Madison",
        "confirmed_cases": 365,
        "deaths": 26,
        "total_tested": 2149,
        "lat": 38.904100,
        "lon": -89.925300
      },
      {
        "County": "Marion",
        "confirmed_cases": 35,
        "deaths": 0,
        "total_tested": 670,
        "lat": 38.731300,
        "lon": -88.864700
      },
      {
        "County": "Marshall",
        "confirmed_cases": 4,
        "deaths": 0,
        "total_tested": 80,
        "lat": 40.997300,
        "lon": -89.360600
      },
      {
        "County": "Mason",
        "confirmed_cases": 14,
        "deaths": 0,
        "total_tested": 156,
        "lat": 40.227100,
        "lon": -89.925300
      },
      {
        "County": "Massac",
        "confirmed_cases": 4,
        "deaths": 0,
        "total_tested": 88,
        "lat": 37.247800,
        "lon": -88.749400
      },
      {
        "County": "McDonough",
        "confirmed_cases": 36,
        "deaths": 1,
        "total_tested": 287,
        "lat": 40.388500,
        "lon": -90.677300
      },
      {
        "County": "McHenry",
        "confirmed_cases": 790,
        "deaths": 38,
        "total_tested": 4100,
        "lat": 42.304000,
        "lon": -88.401600
      },
      {
        "County": "McLean",
        "confirmed_cases": 103,
        "deaths": 3,
        "total_tested": 2818,
        "lat": 40.547800,
        "lon": -88.864700
      },
      {
        "County": "Menard",
        "confirmed_cases": 14,
        "deaths": 0,
        "total_tested": 208,
        "lat": 40.022100,
        "lon": -89.813000
      },
      {
        "County": "Mercer",
        "confirmed_cases": 10,
        "deaths": 0,
        "total_tested": 149,
        "lat": 41.198500,
        "lon": -90.677300
      },
      {
        "County": "Monroe",
        "confirmed_cases": 73,
        "deaths": 12,
        "total_tested": 281,
        "lat": 38.274300,
        "lon": -90.187000
      },
      {
        "County": "Montgomery",
        "confirmed_cases": 29,
        "deaths": 1,
        "total_tested": 416,
        "lat": 39.236400,
        "lon": -89.474200
      },
      {
        "County": "Morgan",
        "confirmed_cases": 24,
        "deaths": 1,
        "total_tested": 415,
        "lat": 39.734100,
        "lon": -90.224500
      },
      {
        "County": "Moultrie",
        "confirmed_cases": 5,
        "deaths": 0,
        "total_tested": 71,
        "lat": 39.602100,
        "lon": -88.595200
      },
      {
        "County": "Ogle",
        "confirmed_cases": 132,
        "deaths": 1,
        "total_tested": 1263,
        "lat": 41.997000,
        "lon": -89.322700
      },
      {
        "County": "Out Of State",
        "confirmed_cases": 63,
        "deaths": 3,
        "total_tested": 906,
        "lat": 0.000000,
        "lon": 0.000000
      },
      {
        "County": "Peoria",
        "confirmed_cases": 107,
        "deaths": 3,
        "total_tested": 2370,
        "lat": 40.715600,
        "lon": -89.775500
      },
      {
        "County": "Perry",
        "confirmed_cases": 34,
        "deaths": 0,
        "total_tested": 349,
        "lat": 38.061200,
        "lon": -89.322700
      },
      {
        "County": "Piatt",
        "confirmed_cases": 7,
        "deaths": 0,
        "total_tested": 217,
        "lat": 40.054400,
        "lon": -88.855650
      },
      {
        "County": "Pike",
        "confirmed_cases": 1,
        "deaths": 0,
        "total_tested": 83,
        "lat": 39.566200,
        "lon": -90.829400
      },
      {
        "County": "Pope",
        "confirmed_cases": 0,
        "deaths": 0,
        "total_tested": 22,
        "lat": 37.417100,
        "lon": -88.595200
      },
      {
        "County": "Pulaski",
        "confirmed_cases": 20,
        "deaths": 0,
        "total_tested": 70,
        "lat": 37.251200,
        "lon": -89.132500
      },
      {
        "County": "Putnam",
        "confirmed_cases": 0,
        "deaths": 0,
        "total_tested": 30,
        "lat": 41.238500,
        "lon": -89.284700
      },
      {
        "County": "Randolph",
        "confirmed_cases": 182,
        "deaths": 1,
        "total_tested": 906,
        "lat": 38.062900,
        "lon": -89.775500
      },
      {
        "County": "Richland",
        "confirmed_cases": 3,
        "deaths": 0,
        "total_tested": 356,
        "lat": 38.062900,
        "lon": -89.775500
      },
      {
        "County": "Rock Island",
        "confirmed_cases": 452,
        "deaths": 9,
        "total_tested": 1812,
        "lat": 41.509500,
        "lon": -90.578700
      },
      {
        "County": "Saline",
        "confirmed_cases": 4,
        "deaths": 0,
        "total_tested": 212,
        "lat": 37.715000,
        "lon": -88.556500
      },
      {
        "County": "Sangamon",
        "confirmed_cases": 212,
        "deaths": 11,
        "total_tested": 3994,
        "lat": 39.733700,
        "lon": -89.625200
      },
      {
        "County": "Schuyler",
        "confirmed_cases": 1,
        "deaths": 0,
        "total_tested": 102,
        "lat": 40.184500,
        "lon": -90.639400
      },
      {
        "County": "Scott",
        "confirmed_cases": 0,
        "deaths": 0,
        "total_tested": 57,
        "lat": 39.609500,
        "lon": -90.488000
      },
      {
        "County": "Shelby",
        "confirmed_cases": 10,
        "deaths": 1,
        "total_tested": 113,
        "lat": 39.398100,
        "lon": -88.864700
      },
      {
        "County": "St. Clair",
        "confirmed_cases": 551,
        "deaths": 34,
        "total_tested": 2984,
        "lat": 38.400800,
        "lon": -89.925300
      },
      {
        "County": "Stark",
        "confirmed_cases": 1,
        "deaths": 0,
        "total_tested": 38,
        "lat": 41.079600,
        "lon": -89.813000
      },
      {
        "County": "Stephenson",
        "confirmed_cases": 71,
        "deaths": 0,
        "total_tested": 378,
        "lat": 42.314500,
        "lon": -89.625200
      },
      {
        "County": "Tazewell",
        "confirmed_cases": 45,
        "deaths": 3,
        "total_tested": 1762,
        "lat": 40.552200,
        "lon": -89.474200
      },
      {
        "County": "Unassigned",
        "confirmed_cases": 214,
        "deaths": 0,
        "total_tested": 6402,
        "lat": 39.839888,
        "lon": -89.510168
      },
      {
        "County": "Union",
        "confirmed_cases": 30,
        "deaths": 0,
        "total_tested": 307,
        "lat": 37.508700,
        "lon": -89.284700
      },
      {
        "County": "Vermilion",
        "confirmed_cases": 21,
        "deaths": 1,
        "total_tested": 785,
        "lat": 40.122500,
        "lon": -87.697600
      },
      {
        "County": "Wabash",
        "confirmed_cases": 1,
        "deaths": 0,
        "total_tested": 142,
        "lat": 38.422600,
        "lon": -87.815700
      },
      {
        "County": "Warren",
        "confirmed_cases": 85,
        "deaths": 0,
        "total_tested": 265,
        "lat": 40.875900,
        "lon": -90.677300
      },
      {
        "County": "Washington",
        "confirmed_cases": 13,
        "deaths": 0,
        "total_tested": 181,
        "lat": 38.398900,
        "lon": -89.322700
      },
      {
        "County": "Wayne",
        "confirmed_cases": 2,
        "deaths": 0,
        "total_tested": 166,
        "lat": 38.390000,
        "lon": -88.401600
      },
      {
        "County": "White",
        "confirmed_cases": 2,
        "deaths": 0,
        "total_tested": 166,
        "lat": 38.050100,
        "lon": -88.246100
      },
      {
        "County": "Whiteside",
        "confirmed_cases": 92,
        "deaths": 6,
        "total_tested": 1058,
        "lat": 41.760600,
        "lon": -89.850500
      },
      {
        "County": "Will",
        "confirmed_cases": 3066,
        "deaths": 169,
        "total_tested": 15910,
        "lat": 41.505500,
        "lon": -88.090100
      },
      {
        "County": "Williamson",
        "confirmed_cases": 35,
        "deaths": 0,
        "total_tested": 956,
        "lat": 37.718300,
        "lon": -88.864700
      },
      {
        "County": "Winnebago",
        "confirmed_cases": 638,
        "deaths": 18,
        "total_tested": 4377,
        "lat": 42.312100,
        "lon": -89.170600
      },
      {
        "County": "Woodford",
        "confirmed_cases": 13,
        "deaths": 1,
        "total_tested": 362,
        "lat": 40.712900,
        "lon": -89.170600
      }
    ]
  },

  "state_testing_results": {
    "values": [
      {
        "testDate": "3/10/2020",
        "total_tested": 326,
        "confirmed_cases": 20,
        "deaths": 0
      },
      {
        "testDate": "3/11/2020",
        "total_tested": 367,
        "confirmed_cases": 25,
        "deaths": 0
      },
      {
        "testDate": "3/12/2020",
        "total_tested": 418,
        "confirmed_cases": 32,
        "deaths": 0
      },
      {
        "testDate": "3/13/2020",
        "total_tested": 444,
        "confirmed_cases": 46,
        "deaths": 0
      },
      {
        "testDate": "3/14/2020",
        "total_tested": 708,
        "confirmed_cases": 64,
        "deaths": 0
      },
      {
        "testDate": "3/15/2020",
        "total_tested": 932,
        "confirmed_cases": 93,
        "deaths": 0
      },
      {
        "testDate": "3/16/2020",
        "total_tested": 1143,
        "confirmed_cases": 105,
        "deaths": 0
      },
      {
        "testDate": "3/17/2020",
        "total_tested": 1500,
        "confirmed_cases": 160,
        "deaths": 1
      },
      {
        "testDate": "3/18/2020",
        "total_tested": 2052,
        "confirmed_cases": 288,
        "deaths": 3
      },
      {
        "testDate": "3/19/2020",
        "total_tested": 3151,
        "confirmed_cases": 422,
        "deaths": 4
      },
      {
        "testDate": "3/20/2020",
        "total_tested": 4286,
        "confirmed_cases": 585,
        "deaths": 5
      },
      {
        "testDate": "3/21/2020",
        "total_tested": 6247,
        "confirmed_cases": 753,
        "deaths": 6
      },
      {
        "testDate": "3/22/2020",
        "total_tested": 8374,
        "confirmed_cases": 1046,
        "deaths": 9
      },
      {
        "testDate": "3/23/2020",
        "total_tested": 9868,
        "confirmed_cases": 1283,
        "deaths": 12
      },
      {
        "testDate": "3/24/2020",
        "total_tested": 11485,
        "confirmed_cases": 1535,
        "deaths": 16
      },
      {
        "testDate": "3/25/2020",
        "total_tested": 14209,
        "confirmed_cases": 1865,
        "deaths": 19
      },
      {
        "testDate": "3/26/2020",
        "total_tested": 16631,
        "confirmed_cases": 2538,
        "deaths": 26
      },
      {
        "testDate": "3/27/2020",
        "total_tested": 21542,
        "confirmed_cases": 3026,
        "deaths": 34
      },
      {
        "testDate": "3/28/2020",
        "total_tested": 25429,
        "confirmed_cases": 3491,
        "deaths": 47
      },
      {
        "testDate": "3/29/2020",
        "total_tested": 27762,
        "confirmed_cases": 4596,
        "deaths": 65
      },
      {
        "testDate": "3/30/2020",
        "total_tested": 30446,
        "confirmed_cases": 5056,
        "deaths": 72
      },
      {
        "testDate": "3/31/2020",
        "total_tested": 35225,
        "confirmed_cases": 5994,
        "deaths": 99
      },
      {
        "testDate": "4/1/2020",
        "total_tested": 40384,
        "confirmed_cases": 6980,
        "deaths": 141
      },
      {
        "testDate": "4/2/2020",
        "total_tested": 43656,
        "confirmed_cases": 7695,
        "deaths": 157
      },
      {
        "testDate": "4/3/2020",
        "total_tested": 48048,
        "confirmed_cases": 8904,
        "deaths": 210
      },
      {
        "testDate": "4/4/2020",
        "total_tested": 53581,
        "confirmed_cases": 10357,
        "deaths": 243
      },
      {
        "testDate": "4/5/2020",
        "total_tested": 58983,
        "confirmed_cases": 11256,
        "deaths": 274
      },
      {
        "testDate": "4/6/2020",
        "total_tested": 62942,
        "confirmed_cases": 12262,
        "deaths": 307
      },
      {
        "testDate": "4/7/2020",
        "total_tested": 68732,
        "confirmed_cases": 13549,
        "deaths": 380
      },
      {
        "testDate": "4/8/2020",
        "total_tested": 75066,
        "confirmed_cases": 15078,
        "deaths": 462
      },
      {
        "testDate": "4/9/2020",
        "total_tested": 80857,
        "confirmed_cases": 16422,
        "deaths": 528
      },
      {
        "testDate": "4/10/2020",
        "total_tested": 87527,
        "confirmed_cases": 17887,
        "deaths": 596
      },
      {
        "testDate": "4/11/2020",
        "total_tested": 92779,
        "confirmed_cases": 19180,
        "deaths": 677
      },
      {
        "testDate": "4/12/2020",
        "total_tested": 100735,
        "confirmed_cases": 20852,
        "deaths": 720
      },
      {
        "testDate": "4/13/2020",
        "total_tested": 105768,
        "confirmed_cases": 22025,
        "deaths": 794
      },
      {
        "testDate": "4/14/2020",
        "total_tested": 110616,
        "confirmed_cases": 23247,
        "deaths": 868
      },
      {
        "testDate": "4/15/2020",
        "total_tested": 116929,
        "confirmed_cases": 24593,
        "deaths": 948
      },
      {
        "testDate": "4/16/2020",
        "total_tested": 122589,
        "confirmed_cases": 25733,
        "deaths": 1072
      },
      {
        "testDate": "4/17/2020",
        "total_tested": 130163,
        "confirmed_cases": 27575,
        "deaths": 1134
      },
      {
        "testDate": "4/18/2020",
        "total_tested": 137404,
        "confirmed_cases": 29160,
        "deaths": 1259
      },
      {
        "testDate": "4/19/2020",
        "total_tested": 143318,
        "confirmed_cases": 30357,
        "deaths": 1290
      },
      {
        "testDate": "4/20/2020",
        "total_tested": 148358,
        "confirmed_cases": 31508,
        "deaths": 1349
      },
      {
        "testDate": "4/21/2020",
        "total_tested": 154997,
        "confirmed_cases": 33059,
        "deaths": 1468
      },
      {
        "testDate": "4/22/2020",
        "total_tested": 164346,
        "confirmed_cases": 35108,
        "deaths": 1565
      },
      {
        "testDate": "4/23/2020",
        "total_tested": 173508,
        "confirmed_cases": 36934,
        "deaths": 1688
      },
      {
        "testDate": "4/24/2020",
        "total_tested": 189632,
        "confirmed_cases": 39658,
        "deaths": 1795
      },
      {
        "testDate": "4/25/2020",
        "total_tested": 201617,
        "confirmed_cases": 41777,
        "deaths": 1874
      },
      {
        "testDate": "4/26/2020",
        "total_tested": 214952,
        "confirmed_cases": 43903,
        "deaths": 1933
      },
      {
        "testDate": "4/27/2020",
        "total_tested": 227628,
        "confirmed_cases": 45883,
        "deaths": 1983
      },
      {
        "testDate": "4/28/2020",
        "total_tested": 242189,
        "confirmed_cases": 48102,
        "deaths": 2125
      },
      {
        "testDate": "4/29/2020",
        "total_tested": 256667,
        "confirmed_cases": 50355,
        "deaths": 2215
      },
      {
        "testDate": "4/30/2020",
        "total_tested": 269867,
        "confirmed_cases": 52918,
        "deaths": 2355
      },
      {
        "testDate": "5/1/2020",
        "total_tested": 284688,
        "confirmed_cases": 56055,
        "deaths": 2457
      },
      {
        "testDate": "5/2/2020",
        "total_tested": 299896,
        "confirmed_cases": 58505,
        "deaths": 2559
      },
      {
        "testDate": "5/3/2020",
        "total_tested": 319313,
        "confirmed_cases": 61499,
        "deaths": 2618
      },
      {
        "testDate": "5/4/2020",
        "total_tested": 333147,
        "confirmed_cases": 63840,
        "deaths": 2662
      }
    ]
  },
  "demographics": {
    "age": [
      {
        "age_group": "Unknown",
        "count": 53,
        "tested": 18774,
        "deaths": 0,
        "demographics": {
          "race": [
            {
              "description": "White",
              "count": 6,
              "tested": 56,
              "deaths": 0,
              "color": "rgb(31,119,180)"
            },
            {
              "description": "Black",
              "count": 1,
              "tested": 3,
              "deaths": 0,
              "color": "rgb(31,119,180)"
            },
            {
              "description": "Left Blank",
              "count": 34,
              "tested": 18672,
              "deaths": 0,
              "color": "rgb(255,127,14)"
            },
            {
              "description": "Other",
              "count": 1,
              "tested": 6,
              "deaths": 0,
              "color": "rgb(148,103,189)"
            },
            {
              "description": "Asian",
              "count": 1,
              "tested": 5,
              "deaths": 0,
              "color": "rgb(140,86,75)"
            },
            {
              "description": "Hispanic",
              "count": 10,
              "tested": 32,
              "deaths": 0,
              "color": "rgb(214,39,40)"
            },
            {
              "description": "NH/PI*",
              "count": 0,
              "tested": 0,
              "deaths": 0,
              "color": "rgb(127,127,127)"
            },
            {
              "description": "AI/AN**",
              "count": 0,
              "tested": 0,
              "deaths": 0,
              "color": "rgb(31,119,180)"
            }
          ]
        }
      },
      {
        "age_group": "<20",
        "count": 2566,
        "tested": 16645,
        "deaths": 2,
        "demographics": {
          "race": [
            {
              "description": "White",
              "count": 292,
              "tested": 3661,
              "deaths": 1,
              "color": "rgb(31,119,180)"
            },
            {
              "description": "Black",
              "count": 335,
              "tested": 2041,
              "deaths": 1,
              "color": "rgb(31,119,180)"
            },
            {
              "description": "Left Blank",
              "count": 781,
              "tested": 7138,
              "deaths": 0,
              "color": "rgb(255,127,14)"
            },
            {
              "description": "Other",
              "count": 147,
              "tested": 897,
              "deaths": 0,
              "color": "rgb(148,103,189)"
            },
            {
              "description": "Asian",
              "count": 55,
              "tested": 308,
              "deaths": 0,
              "color": "rgb(140,86,75)"
            },
            {
              "description": "Hispanic",
              "count": 953,
              "tested": 2582,
              "deaths": 0,
              "color": "rgb(214,39,40)"
            },
            {
              "description": "NH/PI*",
              "count": 1,
              "tested": 8,
              "deaths": 0,
              "color": "rgb(127,127,127)"
            },
            {
              "description": "AI/AN**",
              "count": 2,
              "tested": 10,
              "deaths": 0,
              "color": "rgb(31,119,180)"
            }
          ]
        }
      },
      {
        "age_group": "20-29",
        "count": 8927,
        "tested": 42520,
        "deaths": 15,
        "demographics": {
          "race": [
            {
              "description": "White",
              "count": 1560,
              "tested": 8593,
              "deaths": 0,
              "color": "rgb(31,119,180)"
            },
            {
              "description": "Black",
              "count": 1452,
              "tested": 4211,
              "deaths": 7,
              "color": "rgb(31,119,180)"
            },
            {
              "description": "Left Blank",
              "count": 2638,
              "tested": 21670,
              "deaths": 1,
              "color": "rgb(255,127,14)"
            },
            {
              "description": "Other",
              "count": 421,
              "tested": 2455,
              "deaths": 0,
              "color": "rgb(148,103,189)"
            },
            {
              "description": "Asian",
              "count": 273,
              "tested": 816,
              "deaths": 0,
              "color": "rgb(140,86,75)"
            },
            {
              "description": "Hispanic",
              "count": 2569,
              "tested": 4717,
              "deaths": 7,
              "color": "rgb(214,39,40)"
            },
            {
              "description": "NH/PI*",
              "count": 6,
              "tested": 27,
              "deaths": 0,
              "color": "rgb(127,127,127)"
            },
            {
              "description": "AI/AN**",
              "count": 8,
              "tested": 31,
              "deaths": 0,
              "color": "rgb(31,119,180)"
            }
          ]
        }
      },
      {
        "age_group": "30-39",
        "count": 10190,
        "tested": 53571,
        "deaths": 43,
        "demographics": {
          "race": [
            {
              "description": "White",
              "count": 1630,
              "tested": 11188,
              "deaths": 5,
              "color": "rgb(31,119,180)"
            },
            {
              "description": "Black",
              "count": 1733,
              "tested": 5203,
              "deaths": 23,
              "color": "rgb(31,119,180)"
            },
            {
              "description": "Left Blank",
              "count": 3129,
              "tested": 28018,
              "deaths": 1,
              "color": "rgb(255,127,14)"
            },
            {
              "description": "Other",
              "count": 441,
              "tested": 2929,
              "deaths": 0,
              "color": "rgb(148,103,189)"
            },
            {
              "description": "Asian",
              "count": 358,
              "tested": 1304,
              "deaths": 1,
              "color": "rgb(140,86,75)"
            },
            {
              "description": "Hispanic",
              "count": 2869,
              "tested": 4839,
              "deaths": 12,
              "color": "rgb(214,39,40)"
            },
            {
              "description": "NH/PI*",
              "count": 17,
              "tested": 35,
              "deaths": 1,
              "color": "rgb(127,127,127)"
            },
            {
              "description": "AI/AN**",
              "count": 13,
              "tested": 55,
              "deaths": 0,
              "color": "rgb(31,119,180)"
            }
          ]
        }
      },
      {
        "age_group": "40-49",
        "count": 11531,
        "tested": 52559,
        "deaths": 93,
        "demographics": {
          "race": [
            {
              "description": "White",
              "count": 1834,
              "tested": 10084,
              "deaths": 7,
              "color": "rgb(31,119,180)"
            },
            {
              "description": "Black",
              "count": 2099,
              "tested": 5676,
              "deaths": 40,
              "color": "rgb(31,119,180)"
            },
            {
              "description": "Left Blank",
              "count": 3329,
              "tested": 27734,
              "deaths": 2,
              "color": "rgb(255,127,14)"
            },
            {
              "description": "Other",
              "count": 519,
              "tested": 2702,
              "deaths": 1,
              "color": "rgb(148,103,189)"
            },
            {
              "description": "Asian",
              "count": 373,
              "tested": 1225,
              "deaths": 5,
              "color": "rgb(140,86,75)"
            },
            {
              "description": "Hispanic",
              "count": 3358,
              "tested": 5068,
              "deaths": 37,
              "color": "rgb(214,39,40)"
            },
            {
              "description": "NH/PI*",
              "count": 6,
              "tested": 29,
              "deaths": 0,
              "color": "rgb(127,127,127)"
            },
            {
              "description": "AI/AN**",
              "count": 13,
              "tested": 41,
              "deaths": 1,
              "color": "rgb(31,119,180)"
            }
          ]
        }
      },
      {
        "age_group": "50-59",
        "count": 12063,
        "tested": 55598,
        "deaths": 228,
        "demographics": {
          "race": [
            {
              "description": "White",
              "count": 2561,
              "tested": 12931,
              "deaths": 43,
              "color": "rgb(31,119,180)"
            },
            {
              "description": "Black",
              "count": 2469,
              "tested": 6593,
              "deaths": 97,
              "color": "rgb(31,119,180)"
            },
            {
              "description": "Left Blank",
              "count": 3294,
              "tested": 28486,
              "deaths": 13,
              "color": "rgb(255,127,14)"
            },
            {
              "description": "Other",
              "count": 506,
              "tested": 2433,
              "deaths": 3,
              "color": "rgb(148,103,189)"
            },
            {
              "description": "Asian",
              "count": 357,
              "tested": 1058,
              "deaths": 8,
              "color": "rgb(140,86,75)"
            },
            {
              "description": "Hispanic",
              "count": 2836,
              "tested": 4018,
              "deaths": 62,
              "color": "rgb(214,39,40)"
            },
            {
              "description": "NH/PI*",
              "count": 15,
              "tested": 32,
              "deaths": 1,
              "color": "rgb(127,127,127)"
            },
            {
              "description": "AI/AN**",
              "count": 25,
              "tested": 47,
              "deaths": 1,
              "color": "rgb(31,119,180)"
            }
          ]
        }
      },
      {
        "age_group": "60-69",
        "count": 8656,
        "tested": 45433,
        "deaths": 469,
        "demographics": {
          "race": [
            {
              "description": "White",
              "count": 2285,
              "tested": 12596,
              "deaths": 151,
              "color": "rgb(31,119,180)"
            },
            {
              "description": "Black",
              "count": 2009,
              "tested": 5972,
              "deaths": 206,
              "color": "rgb(31,119,180)"
            },
            {
              "description": "Left Blank",
              "count": 2246,
              "tested": 22142,
              "deaths": 14,
              "color": "rgb(255,127,14)"
            },
            {
              "description": "Other",
              "count": 301,
              "tested": 1620,
              "deaths": 6,
              "color": "rgb(148,103,189)"
            },
            {
              "description": "Asian",
              "count": 311,
              "tested": 820,
              "deaths": 16,
              "color": "rgb(140,86,75)"
            },
            {
              "description": "Hispanic",
              "count": 1481,
              "tested": 2237,
              "deaths": 76,
              "color": "rgb(214,39,40)"
            },
            {
              "description": "NH/PI*",
              "count": 13,
              "tested": 17,
              "deaths": 0,
              "color": "rgb(127,127,127)"
            },
            {
              "description": "AI/AN**",
              "count": 10,
              "tested": 29,
              "deaths": 0,
              "color": "rgb(31,119,180)"
            }
          ]
        }
      },
      {
        "age_group": "70-79",
        "count": 4962,
        "tested": 26760,
        "deaths": 679,
        "demographics": {
          "race": [
            {
              "description": "White",
              "count": 1605,
              "tested": 8887,
              "deaths": 283,
              "color": "rgb(31,119,180)"
            },
            {
              "description": "Black",
              "count": 1362,
              "tested": 3638,
              "deaths": 256,
              "color": "rgb(31,119,180)"
            },
            {
              "description": "Left Blank",
              "count": 1129,
              "tested": 11877,
              "deaths": 20,
              "color": "rgb(255,127,14)"
            },
            {
              "description": "Other",
              "count": 138,
              "tested": 909,
              "deaths": 7,
              "color": "rgb(148,103,189)"
            },
            {
              "description": "Asian",
              "count": 159,
              "tested": 449,
              "deaths": 30,
              "color": "rgb(140,86,75)"
            },
            {
              "description": "Hispanic",
              "count": 554,
              "tested": 960,
              "deaths": 82,
              "color": "rgb(214,39,40)"
            },
            {
              "description": "NH/PI*",
              "count": 4,
              "tested": 11,
              "deaths": 1,
              "color": "rgb(127,127,127)"
            },
            {
              "description": "AI/AN**",
              "count": 11,
              "tested": 29,
              "deaths": 0,
              "color": "rgb(31,119,180)"
            }
          ]
        }
      },
      {
        "age_group": "80+",
        "count": 4892,
        "tested": 21287,
        "deaths": 1133,
        "demographics": {
          "race": [
            {
              "description": "White",
              "count": 2052,
              "tested": 8359,
              "deaths": 626,
              "color": "rgb(31,119,180)"
            },
            {
              "description": "Black",
              "count": 978,
              "tested": 2325,
              "deaths": 281,
              "color": "rgb(31,119,180)"
            },
            {
              "description": "Left Blank",
              "count": 1194,
              "tested": 8938,
              "deaths": 48,
              "color": "rgb(255,127,14)"
            },
            {
              "description": "Other",
              "count": 102,
              "tested": 640,
              "deaths": 12,
              "color": "rgb(148,103,189)"
            },
            {
              "description": "Asian",
              "count": 160,
              "tested": 371,
              "deaths": 52,
              "color": "rgb(140,86,75)"
            },
            {
              "description": "Hispanic",
              "count": 396,
              "tested": 626,
              "deaths": 113,
              "color": "rgb(214,39,40)"
            },
            {
              "description": "NH/PI*",
              "count": 6,
              "tested": 14,
              "deaths": 0,
              "color": "rgb(127,127,127)"
            },
            {
              "description": "AI/AN**",
              "count": 4,
              "tested": 14,
              "deaths": 1,
              "color": "rgb(31,119,180)"
            }
          ]
        }
      }
    ],
    "race": [
      {
        "description": "White",
        "count": 13825,
        "tested": 76355,
        "deaths": 1116,
        "color": "rgb(31,119,180)"
      },
      {
        "description": "Black",
        "count": 12438,
        "tested": 35662,
        "deaths": 911,
        "color": "rgb(255,127,14)"
      },
      {
        "description": "Left Blank",
        "count": 17774,
        "tested": 174675,
        "deaths": 99,
        "color": "rgb(44,160,44)"
      },
      {
        "description": "Other",
        "count": 2576,
        "tested": 14591,
        "deaths": 29,
        "color": "rgb(148,103,189)"
      },
      {
        "description": "Asian",
        "count": 2047,
        "tested": 6356,
        "deaths": 112,
        "color": "rgb(140,86,75)"
      },
      {
        "description": "Hispanic",
        "count": 15026,
        "tested": 25079,
        "deaths": 389,
        "color": "rgb(214,39,40)"
      },
      {
        "description": "NH/PI*",
        "count": 68,
        "tested": 173,
        "deaths": 3,
        "color": "rgb(127,127,127)"
      },
      {
        "description": "AI/AN**",
        "count": 86,
        "tested": 256,
        "deaths": 3,
        "color": "rgb(31,119,180)"
      }
    ],
    "gender": [
      {
        "description": "Male",
        "count": 30600,
        "tested": 132738,
        "deaths": 1531,
        "color": "rgb(31,119,180)"
      },
      {
        "description": "Female",
        "count": 31931,
        "tested": 172303,
        "deaths": 1129,
        "color": "rgb(255,127,14)"
      },
      {
        "description": "Unknown/Left Blank",
        "count": 1309,
        "tested": 28106,
        "deaths": 2,
        "color": "rgb(44,160,44)"
      }
    ]
  }
}
